id_B,hotel_name,address,city,country,latitude,longitude,rating,reviews_count
B00000,Palace Augusta,"Pça. Central, 7844",Barcelona,ES,41.336272,2.134553,3.7,399
B00001,Pousada Paulista,"Avenue das Flores, 1830",Madrid,ES,40.358635,-3.730172,4.0,603
B00002,Inn Gaudí Boutique,Avenue das Flores 8677,Porto,PT,41.12753,-8.543111,4.1,798
B00003,Suites Europa,"Street Liberdade, 7617",Porto,PT,41.17073,-8.505382,3.2,710
B00004,Residency Paulista,Avenue Copacabana 9880,Curitiba,BR,-25.382215,-49.385295,4.3,896
B00005,Palace Seine Saint,Avenue dos Andradas 6285,Curitiba,BR,-25.365414,-49.24659,3.4,705
B00006,Palace Copacabana & Spa,"Praça da República, 8946",Rio de Janeiro,BR,-22.919353,-43.192444,3.6,814
B00007, Copacabana II,"Avenue da República, 1991",Barcelona,ES,41.551748,2.2847,4.2,468
B00008,Hotel Liberdade II,"Avenue Liberdade, 3447",Curitiba,BR,-25.418427,-49.229646,4.3,890
B00009,Residency Paulista,"Avenue Liberdade, 6091",Belo Horizonte,BR,-19.9097,-43.895277,5.0,888
B00010,Inn Liberdade Saint,"Avenida dos Andradas, 8457",Rio de Janeiro,BR,-22.90365,-43.202371,4.3,1023
B00011,Grand Hotel Lumière,"Rua da Sé, 6286",Paris,FR,48.804981,2.376544,3.1,1289
B00012,Grand Hotel Seine II,"Rua Central, 3084",Curitiba,BR,-25.435188,-49.248427,3.7,387
B00013,Residency Gaudí,"Praça Central, 3677",Lisboa,PT,38.731337,-9.215723,4.7,840
B00014,Pousada Liberdade Saint,Praça dos Andradas 761,Curitiba,BR,-25.474552,-49.241055,3.8,1022
B00015,Palace Cathedral,"Avenida Copacabana, 788",Porto Alegre,BR,-30.072439,-51.196086,4.3,233
B00016,Pousada Central Boutique,"Praça Liberdade, 1856",São Paulo,BR,-23.599448,-46.645124,3.5,157
B00017,Pousada Cathedral Saint,Avenue Liberdade 9570,São Paulo,BR,-23.548902,-46.696956,3.4,694
B00018,Residency Copacabana II,"Street Paulista, 6107",Porto Alegre,BR,-30.043573,-51.277055,4.3,300
B00019,Pousada Cathedral St.,"Praça da República, 8390",Porto,PT,41.194788,-8.555346,5.0,481
B00020,Suites Liberdade,"Avenida Liberdade, 9857",Belo Horizonte,BR,-19.938407,-43.962554,3.7,907
B00021,Inn Copacabana,"Praça das Flores, 8567",Madrid,ES,40.371041,-3.54716,3.2,415
B00022,Residency Paulista,"Avenida da Sé, 1257",Curitiba,BR,-25.443171,-49.192206,4.3,710
B00023,Residency Europa II,"Avenida Augusta, 5828",Barcelona,ES,41.426949,2.107214,4.1,765
B00024,Palace Seine II & Spa,"Avenue Copacabana, 7381",Madrid,ES,40.352319,-3.739509,4.2,1082
B00025,Hotel Cathedral Saint,"Praça Paulista, 8059",Rio de Janeiro,BR,-22.913039,-43.196466,4.0,533
B00026,Suites Augusta Saint,"Avenue Augusta, 6528",Barcelona,ES,41.345877,2.204611,4.6,270
B00027,Grand Hotel Liberdade,"Rua da República, 7726",Porto Alegre,BR,-30.010306,-51.267775,3.3,381
B00028,Suites Liberdade II,"Praça Paulista, 9571",Barcelona,ES,41.405383,2.170236,3.9,752
B00029,Grand Hotel Central II,"Avenida da Sé, 3649",Madrid,ES,40.438895,-3.746279,4.1,456
B00030,Residency Liberdade,"Avenida Central, 7410",Belo Horizonte,BR,-19.877768,-43.976381,3.5,323
B00031,Suites Europa II,"Praça da Sé, 4482",Lisboa,PT,38.69076,-9.122364,2.9,536
B00032,Palace Paulista Saint,"Avenue da Sé, 1059",Lisboa,PT,38.806225,-9.102267,3.6,1
B00033,Hotel Lumière,"Rua Copacabana, 699",Curitiba,BR,-25.462874,-49.272483,4.5,434
B00034,Palace Europa Boutique,"Avenida dos Andradas, 704",Rio de Janeiro,BR,-22.916036,-43.136456,4.1,264
B00035,Grand Hotel Liberdade,"Rua das Flores, 2574",Belo Horizonte,BR,-19.960802,-43.860305,4.3,146
B00036,Inn Seine Saint,"Avenue Augusta, 7588",Belo Horizonte,BR,-19.890787,-43.969708,4.1,192
B00037,Inn Paulista,"Rua da Sé, 1639",Porto Alegre,BR,-30.108535,-51.185484,4.4,1184
B00038,Inn Augusta St.,"Street Paulista, 1763",Porto Alegre,BR,-29.904177,-51.234851,4.9,341
B00039,Inn Liberdade,"Street Central, 7735",Porto Alegre,BR,-30.023257,-51.25456,3.7,795
B00040,Palace Augusta,"Street Liberdade, 6656",Belo Horizonte,BR,-19.979987,-44.016617,4.3,255
B00041,Suites Lumière II Boutique,Avenue Paulista 2879,Porto Alegre,BR,-29.986144,-51.261979,3.7,710
B00042,Residency Augusta Saint,"Praça Central, 365",Porto Alegre,BR,-30.099206,-51.18321,3.6,118
B00043,Grand Hotel Liberdade II,"Avenue da Sé, 9096",Barcelona,ES,41.419832,2.220911,3.7,1335
B00044,Suites Seine II,"Street Copacabana, 277",Barcelona,ES,41.451083,2.128549,4.9,498
B00045,Inn Seine,"Rua das Flores, 2114",Rio de Janeiro,BR,-22.863067,-43.174519,3.8,1439
B00046,Hotel Gaudí St.,"Avenue Europa, 7344",São Paulo,BR,-23.527797,-46.605841,4.3,1639
B00047,Inn Liberdade Boutique,"Avenue Paulista, 6133",Barcelona,ES,41.363879,2.176675,5.0,698
B00048,Residency Gaudí Saint,"Avenida da Sé, 3862",Paris,FR,48.788829,2.320245,4.0,255
B00049,Residency Cathedral Saint Boutique,"Avenida Europa, 4489",Paris,FR,48.79038,2.336426,4.3,793
B00050,Inn Paulista,"St Copacabana, 6639",São Paulo,BR,-23.514783,-46.646468,3.4,752
B00051,Suites Copacabana,"Rua das Flores, 1648",São Paulo,BR,-23.512858,-46.687165,4.8,331
B00052,Hotel Augusta,Avenue Liberdade 7834,Madrid,ES,40.435781,-3.71522,4.4,893
B00053,Lumière Saint,"Avenida Liberdade, 7038",Paris,FR,48.819272,2.342694,3.5,693
B00054,Palace Liberdade Saint,Rua da República 183,Madrid,ES,40.514928,-3.703718,3.7,18
B00055,Palace Cathedral & Spa,"Praça da Sé, 3793",Curitiba,BR,-25.396436,-49.316112,4.9,173
B00056,Pousada Europa,"Avenue da República, 9135",Porto,PT,41.148776,-8.628698,4.7,758
B00057,Inn Europa II,"Rua da República, 7779",Rio de Janeiro,BR,-23.004934,-43.120912,3.7,739
B00058,Inn Central,"Rua Copacabana, 7985",Curitiba,BR,-25.430147,-49.293242,3.1,375
B00059,Grand Hotel Liberdade Saint,"Avenue Liberdade, 4248",Paris,FR,48.812511,2.435236,4.7,501
B00060,Grand Hotel Central,"Avenue da Sé, 3673",Curitiba,BR,-25.416883,-49.157094,3.7,1107
B00061,Suites Gaudí II,"Avenue Augusta, 984",Curitiba,BR,-25.407237,-49.269556,3.2,58
B00062,Residency Europa,"Rua Central, 3717",Porto Alegre,BR,-30.093974,-51.18629,4.2,192
B00063,Grand Hotel Lumière II Boutique Boutique,"Praça da Sé, 6906",Porto,PT,41.113296,-8.587731,4.4,637
B00064,Residency Augusta,"Praça das Flores, 5391",Rio de Janeiro,BR,-22.964828,-43.151647,4.3,866
B00065,Pousada Central,"Street dos Andradas, 770",São Paulo,BR,-23.478994,-46.554307,2.6,616
B00066,Palace Copacabana,"Street da República, 6236",Curitiba,BR,-25.372783,-49.251889,3.8,228
B00067,Hotel Lumière,"Praça Paulista, 5259",Rio de Janeiro,BR,-22.863119,-43.135006,4.2,609
B00068,Grand Hotel Gaudí,"R. das Flores, 6279",Barcelona,ES,41.345089,2.163729,5.0,143
B00069,Palace Liberdade,Praça Paulista 8155,Rio de Janeiro,BR,-22.892077,-43.172987,4.5,631
B00070,Palace Augusta II,"Avenue Augusta, 7575",Porto,PT,41.156596,-8.578833,4.6,671
B00071,Grand Hotel Gaudí,"St Augusta, 2694",São Paulo,BR,-23.546647,-46.582851,3.5,357
B00072,Hotel Gaudí,"Praça da República, 5865",São Paulo,BR,-23.541919,-46.693879,5.0,483
B00073,Grand Hotel Lumière Saint,"Rua Augusta, 7995",Rio de Janeiro,BR,-22.895112,-43.174886,2.7,510
B00074,Pousada Copacabana,"Avenida dos Andradas, 1708",Curitiba,BR,-25.395153,-49.328445,3.8,659
B00075,Residency Central,"Street Copacabana, 8005",Barcelona,ES,41.419593,2.281113,3.3,280
B00076,Inn Gaudí,Avenida das Flores 1960,São Paulo,BR,-23.568731,-46.675431,3.7,646
B00077,Inn Seine,"Street Paulista, 9209",Barcelona,ES,41.374391,2.159451,3.1,850
B00078,Pousada Liberdade,Pça. Augusta 2256,Curitiba,BR,-25.418029,-49.253038,3.6,542
B00079,Inn Central,"Praça Central, 8446",Barcelona,ES,41.399193,2.110308,4.7,934
B00080,Hotel Augusta,"Rua da Sé, 5700",Porto,PT,41.128238,-8.667844,4.4,783
B00081,Inn Paulista & Spa,"Praça Augusta, 7997",Madrid,ES,40.422621,-3.705858,4.2,570
B00082,Palace Liberdade,"Street da Sé, 5089",Paris,FR,48.832135,2.309746,2.7,373
B00083,Grand Hotel Central II & Spa,Avenida dos Andradas 5443,Porto Alegre,BR,-30.097408,-51.266071,3.5,76
B00084,Hotel Lumière,Street da Sé 5692,Lisboa,PT,38.779835,-9.145381,3.9,105
B00085,Inn Seine St.,"Avenue Europa, 9562",Belo Horizonte,BR,-19.959198,-43.855236,4.1,436
B00086,Residency Augusta,"Avenue da República, 7422",Rio de Janeiro,BR,-22.927313,-43.14504,4.7,531
B00087,Palace Augusta,"Avenida Paulista, 2840",Rio de Janeiro,BR,-22.891586,-43.125461,4.5,818
B00088,Pousada Paulista,"Praça da Sé, 5053",Porto,PT,41.208471,-8.58559,3.4,667
B00089,Inn Seine,Avenue das Flores 5746,Lisboa,PT,38.759806,-9.108591,3.7,427
B00090,Hotel Lumière,"Rua Liberdade, 2787",Lisboa,PT,38.629665,-9.201317,3.7,855
B00091,Suites Europa,"Ave da República, 3441",Paris,FR,48.838147,2.36012,4.1,725
B00092,Hotel Central,Praça Paulista 699,Porto Alegre,BR,-30.053283,-51.182225,3.7,574
B00093,Inn Liberdade II,"Avenue da Sé, 5487",São Paulo,BR,-23.597453,-46.690076,4.4,673
B00094,Residency Gaudí St.,"Avenue Europa, 2157",Madrid,ES,40.509331,-3.680411,4.0,509
B00095,Suites Cathedral II & Spa,"Avenida Central, 1192",Barcelona,ES,41.419385,2.214811,4.7,321
B00096,Residency Cathedral,"Street Augusta, 1325",Rio de Janeiro,BR,-22.944624,-43.178671,4.3,1029
B00097,Palace Gaudí Saint,"Rua Central, 1532",Rio de Janeiro,BR,-22.927127,-43.144246,4.2,753
B00098,Pousada Europa,"Praça Augusta, 9443",Barcelona,ES,41.355409,2.123049,5.0,274
B00099,Pousada Seine & Spa Boutique,"Street das Flores, 5064",Porto Alegre,BR,-30.100511,-51.190987,4.2,114
B00100,Grand Hotel Copacabana,Rua Augusta 4965,Paris,FR,48.761388,2.367723,4.5,765
B00101,Palace Liberdade,"Praça da Sé, 5714",Lisboa,PT,38.654979,-9.048648,4.8,351
B00102,Residency Paulista Saint,"Rua dos Andradas, 7450",Paris,FR,48.874657,2.413463,4.2,325
B00103,Palace Europa II,"Avenue da Sé, 1461",Curitiba,BR,-25.442166,-49.350513,3.2,713
B00104,Hotel Lumière,"Avenida Europa, 3420",Rio de Janeiro,BR,-22.832701,-43.165622,4.8,480
B00105,Suites Europa II,"Praça Central, 7902",São Paulo,BR,-23.577816,-46.500821,4.8,351
B00106,Suites Copacabana Saint,"Street Copacabana, 4531",Curitiba,BR,-25.376377,-49.357551,3.4,1
B00107,Residency Copacabana,"Rua das Flores, 4262",Porto Alegre,BR,-30.043012,-51.203581,4.7,699
B00108,Palace Augusta II,"Rua Europa, 6328",Rio de Janeiro,BR,-22.904543,-43.195168,3.2,296
B00109,Pousada Copacabana,"Praça Liberdade, 6778",Rio de Janeiro,BR,-22.936236,-43.116321,4.2,446
B00110,Residency Lumière II,"Avenida da República, 8718",Madrid,ES,40.513849,-3.688591,4.2,220
B00111,Inn Seine,"Praça das Flores, 1762",Lisboa,PT,38.615173,-9.140391,3.8,196
B00112,Inn Lumière Saint,"Praça Liberdade, 9353",Curitiba,BR,-25.388231,-49.265236,4.8,540
B00113,Suites Gaudí II,"Pça. das Flores, 847",Porto Alegre,BR,-29.969893,-51.234328,3.8,693
B00114,Inn Paulista,"Avenida dos Andradas, 2049",Rio de Janeiro,BR,-22.967063,-43.156476,5.0,65
B00115, Central II,"Avenue da República, 10",Paris,FR,48.788845,2.360741,3.7,543
B00116,Residency Europa,"Rua das Flores, 2833",Belo Horizonte,BR,-19.856605,-43.915661,3.8,944
B00117,Palace Lumière Saint,"Avenida Liberdade, 5257",Barcelona,ES,41.393998,2.160217,4.6,624
B00118,Pousada Gaudí,"Street Liberdade, 6414",Curitiba,BR,-25.410926,-49.28777,4.3,1158
B00119,Inn Gaudí & Spa,"Rua Copacabana, 1066",Belo Horizonte,BR,-19.931628,-43.874301,3.6,81
B00120,Suites Paulista Saint,"Rua Central, 4671",Madrid,ES,40.359214,-3.778663,3.6,449
B00121,Pousada Augusta Boutique,"Avenue da Sé, 1121",Porto Alegre,BR,-30.056487,-51.213443,4.7,200
B00122,Palace Seine,"Street das Flores, 6029",Barcelona,ES,41.392474,2.295154,3.2,1383
B00123,Inn Copacabana Saint,"Pça. Liberdade, 95",Curitiba,BR,-25.344476,-49.242131,4.9,671
B00124,Suites Seine,"Avenida Europa, 6167",Lisboa,PT,38.730568,-9.008767,3.8,404
B00125,Inn Augusta,Avenida Paulista 3877,São Paulo,BR,-23.454398,-46.561666,4.8,288
B00126,Hotel Central Saint,"Avenue da Sé, 1793",Curitiba,BR,-25.4498,-49.291167,4.1,763
B00127,Pousada Augusta,Praça dos Andradas 1626,Lisboa,PT,38.655695,-9.205641,3.6,961
B00128,Pousada Liberdade II,"Street dos Andradas, 1991",Porto,PT,41.112417,-8.566463,3.9,378
B00129,Hotel Cathedral & Spa,Rua Augusta 3433,Porto Alegre,BR,-30.07024,-51.239221,3.8,586
B00130,Palace Cathedral Saint,"Avenida Liberdade, 4874",Paris,FR,48.808427,2.439848,4.5,836
B00131,Hotel Gaudí Saint,"Pça. das Flores, 5955",Lisboa,PT,38.72516,-9.146774,4.4,184
B00132,Residency Lumière II Boutique,"Pça. Augusta, 7971",Curitiba,BR,-25.514739,-49.313444,4.5,353
B00133,Hotel Cathedral,"Avenue Liberdade, 4243",Madrid,ES,40.336426,-3.613102,3.3,226
B00134,Grand Hotel Liberdade Saint,Street da Sé 4492,Porto,PT,41.209822,-8.642664,4.7,445
B00135,Pousada Augusta II Boutique,"Rua Europa, 1388",Madrid,ES,40.433881,-3.698074,3.3,416
B00136,Suites Augusta II,Avenue Copacabana 8634,Porto Alegre,BR,-30.112722,-51.201332,4.8,647
B00137,Grand Hotel Cathedral,"Avenue Central, 8042",Belo Horizonte,BR,-19.875687,-43.984483,4.6,108
B00138,Palace Cathedral II,"Rua Europa, 9901",Curitiba,BR,-25.35914,-49.294502,3.0,218
B00139,Suites Paulista Saint & Spa,"Street Liberdade, 4789",Barcelona,ES,41.360211,2.100885,3.5,181
B00140,Palace Gaudí,"Rua Paulista, 2344",Paris,FR,48.957792,2.346712,3.3,395
B00141,Pousada Copacabana,"Street Liberdade, 4204",Porto,PT,41.182336,-8.68987,3.4,399
B00142,Pousada Paulista,"Avenida Central, 5137",Paris,FR,48.794363,2.338959,4.6,554
B00143,Pousada Seine,"Avenida Europa, 8045",Lisboa,PT,38.658448,-9.006387,3.6,407
B00144,Residency Gaudí Saint,"Avenida da República, 8008",Curitiba,BR,-25.398231,-49.232302,4.1,329
B00145,Pousada Seine Saint,"Praça Copacabana, 5393",Belo Horizonte,BR,-19.917314,-43.88695,2.8,6
B00146,Residency Lumière,"Rua Copacabana, 5469",Barcelona,ES,41.258543,2.208579,3.8,770
B00147,Pousada Seine II,"Avenue Copacabana, 4347",Madrid,ES,40.393782,-3.629321,4.9,410
B00148,Inn Gaudí II,"Rua da República, 7070",Rio de Janeiro,BR,-22.824036,-43.161579,4.0,416
B00149,Suites Copacabana,"Ave Central, 146",São Paulo,BR,-23.525669,-46.644305,3.4,437
B00150,Pousada Seine,"Street dos Andradas, 9131",Rio de Janeiro,BR,-22.866699,-43.160554,4.2,276
B00151,Palace Central,"Avenida Copacabana, 3565",Belo Horizonte,BR,-19.942427,-43.942549,4.5,859
B00152,Residency Paulista,"Rua Europa, 1914",Belo Horizonte,BR,-20.008969,-43.779922,4.9,315
B00153,Palace Gaudí,"Avenue Copacabana, 4676",Porto,PT,41.036285,-8.652958,4.0,1
B00154,Inn Central,"Avenue Europa, 5371",Rio de Janeiro,BR,-22.883135,-43.168047,3.9,815
B00155,Pousada Seine Saint,"Avenida das Flores, 1592",Porto,PT,41.069444,-8.586601,4.1,698
B00156,Inn Paulista Saint,"Avenue Central, 1705",Porto,PT,41.102538,-8.580871,4.7,525
B00157,Grand Hotel Seine,"Avenue da República, 6507",Paris,FR,48.878436,2.329323,4.3,812
B00158,Residency Copacabana Boutique,"Rua Central, 9883",Madrid,ES,40.352829,-3.662493,4.4,1133
B00159,Pousada Central Saint,"Avenida da Sé, 5353",Barcelona,ES,41.364294,2.180351,4.7,162
B00160,Suites Paulista II Boutique Boutique,"Rua dos Andradas, 9078",Porto Alegre,BR,-30.053297,-51.223756,4.3,302
B00161,Residency Paulista II,"Av. Augusta, 9646",Barcelona,ES,41.316228,2.061366,4.5,304
B00162,Suites Liberdade,Rua Europa 5627,Rio de Janeiro,BR,-22.921835,-43.155354,3.5,953
B00163,Residency Lumière,"Rua Paulista, 6574",Barcelona,ES,41.470833,2.045402,4.6,408
B00164, Central II,Avenue Copacabana 6645,Lisboa,PT,38.689311,-9.087835,3.8,526
B00165,Grand Hotel Copacabana II,"Pça. Central, 8358",Rio de Janeiro,BR,-22.890735,-43.146167,4.1,298
B00166,Hotel Paulista,"Street Augusta, 3118",Porto Alegre,BR,-29.970661,-51.263099,4.6,579
B00167,Suites Paulista,"Avenida dos Andradas, 7834",Porto,PT,41.237963,-8.579161,3.6,681
B00168,Hotel Copacabana,"Avenida Augusta, 5384",Madrid,ES,40.472005,-3.728492,5.0,608
B00169,Grand Hotel Liberdade Saint,"Street Europa, 4905",São Paulo,BR,-23.466003,-46.652011,5.0,798
B00170,Hotel Liberdade II,"Street das Flores, 3639",Porto Alegre,BR,-30.039823,-51.176772,4.2,47
B00171,Pousada Liberdade,"Praça dos Andradas, 8947",Barcelona,ES,41.444856,2.162891,4.8,730
B00172,Inn Europa,Street das Flores 9580,Belo Horizonte,BR,-19.872211,-43.790223,3.9,567
B00173,Palace Paulista Saint,Street da República 3592,Rio de Janeiro,BR,-22.980969,-43.097573,2.6,653
B00174,Suites Gaudí II,"Street das Flores, 1526",Porto Alegre,BR,-29.93859,-51.186306,4.3,312
B00175,Hotel Gaudí,"Praça da Sé, 2114",Barcelona,ES,41.390792,2.166671,3.5,893
B00176,Inn Lumière,"Street Augusta, 1391",Belo Horizonte,BR,-19.924789,-43.9421,4.5,493
B00177,Pousada Copacabana,"Avenue Central, 7474",Belo Horizonte,BR,-19.998539,-43.912705,2.6,502
B00178,Suites Europa Saint,"Avenida Paulista, 1199",Barcelona,ES,41.388851,2.268649,4.4,522
B00179,Hotel Lumière,"Street Paulista, 4910",São Paulo,BR,-23.518922,-46.626097,4.1,808
B00180,Hotel Seine II,Avenida Copacabana 3292,Paris,FR,48.779371,2.396106,3.8,596
B00181,Residency Gaudí Saint,"Avenida dos Andradas, 9540",Lisboa,PT,38.780692,-9.201705,4.2,815
B00182,Hotel Cathedral Saint,Pça. Paulista 1389,Madrid,ES,40.426895,-3.751364,3.3,7
B00183,Palace Liberdade,"R. Paulista, 5593",São Paulo,BR,-23.654914,-46.543364,3.7,510
B00184,Suites Seine II,"Rua Liberdade, 2990",Rio de Janeiro,BR,-22.880719,-43.16751,4.1,206
B00185,Residency Augusta Saint,"Avenida da Sé, 8235",Lisboa,PT,38.760098,-9.127879,4.4,547
B00186,Residency Augusta,"Pça. Copacabana, 141",Porto Alegre,BR,-30.011914,-51.288685,5.0,522
B00187,Palace Liberdade,"Avenida Augusta, 7312",Curitiba,BR,-25.467384,-49.191542,3.6,545
B00188,Residency Seine,Praça Augusta 146,Rio de Janeiro,BR,-22.920356,-43.224593,3.7,267
B00189,Inn Copacabana,"Avenue Paulista, 631",Rio de Janeiro,BR,-22.937482,-43.219089,3.7,311
B00190,Pousada Seine,"Avenue Central, 1101",Madrid,ES,40.435777,-3.699909,4.6,311
B00191,Hotel Copacabana,"Praça da Sé, 2476",Belo Horizonte,BR,-19.88711,-44.01988,3.2,735
B00192,Grand Hotel Liberdade II,"Street Copacabana, 5250",Belo Horizonte,BR,-20.018599,-43.969954,4.0,560
B00193,Palace Gaudí Saint,"Avenida Central, 208",Madrid,ES,40.303187,-3.725236,3.5,719
B00194,Grand Hotel Augusta,"Avenida Copacabana, 5783",Belo Horizonte,BR,-19.995669,-44.000307,4.1,10
B00195,Pousada Augusta II,"Avenida Augusta, 7575",Porto Alegre,BR,-30.013353,-51.158507,3.0,841
B00196,Inn Paulista II,Avenue Liberdade 8786,Barcelona,ES,41.408974,2.271934,3.7,606
B00197,Residency Augusta II,"Avenue Liberdade, 8265",Paris,FR,48.886411,2.30324,4.2,465
B00198,Grand Hotel Gaudí II,"Avenue dos Andradas, 8985",Porto,PT,41.196127,-8.690079,3.8,766
B00199,Palace Augusta II,"Street dos Andradas, 3037",Barcelona,ES,41.305493,2.23589,4.9,20
B00200,Grand Hotel Seine,"Praça Copacabana, 4738",Curitiba,BR,-25.421735,-49.28743,3.6,406
B00201,Residency Copacabana Saint,"St Liberdade, 9701",Porto,PT,41.089614,-8.699194,4.4,700
B00202,Palace Central II,"Avenida Paulista, 6165",Madrid,ES,40.474821,-3.756248,3.0,408
B00203,Grand Hotel Copacabana II,"Avenue da República, 8124",Rio de Janeiro,BR,-22.872562,-43.157109,5.0,931
B00204,Hotel Cathedral Saint Boutique,"Avenue Liberdade, 3457",Curitiba,BR,-25.498839,-49.31522,4.9,295
B00205,Residency Liberdade Boutique,"Praça Europa, 8755",Rio de Janeiro,BR,-22.897361,-43.204819,3.5,800
B00206,Suites Paulista Saint,"Rua Central, 3840",Lisboa,PT,38.65965,-9.164276,4.6,226
B00207,Suites Gaudí,"Avenida Europa, 8570",São Paulo,BR,-23.579845,-46.582604,4.4,527
B00208,Palace Copacabana St.,"Rua das Flores, 522",Paris,FR,48.820832,2.359456,4.4,1
B00209,Grand Gaudí II Boutique,"Street da Sé, 2462",Barcelona,ES,41.387245,2.274203,3.4,881
B00210,Residency Cathedral,"Praça dos Andradas, 9952",Paris,FR,48.820979,2.396805,5.0,500
B00211,Grand Hotel Europa Saint,"Praça Copacabana, 6580",Curitiba,BR,-25.428671,-49.344634,4.5,666
B00212,Pousada Europa,"Praça dos Andradas, 1377",São Paulo,BR,-23.461103,-46.597049,4.1,777
B00213,Palace Lumière II,"Rua da Sé, 7354",Rio de Janeiro,BR,-22.929682,-43.138927,4.2,574
B00214,Residency Central,"Avenue Europa, 7379",Rio de Janeiro,BR,-22.951774,-43.274316,4.6,688
B00215,Pousada Seine Boutique,"Avenue dos Andradas, 7910",São Paulo,BR,-23.624376,-46.566698,3.7,1254
B00216,Suites Liberdade & Spa,"Avenida da República, 4432",Lisboa,PT,38.709054,-9.134018,4.7,358
B00217,Pousada Liberdade,"Praça dos Andradas, 3391",Rio de Janeiro,BR,-22.856446,-43.126982,4.4,914
B00218,Palace Augusta II,"Rua Copacabana, 6257",Barcelona,ES,41.359492,2.159999,4.1,751
B00219, Central,"Street dos Andradas, 1284",Curitiba,BR,-25.414338,-49.339077,4.3,1045
B00220,Suites Central,"Avenue Liberdade, 8187",Porto Alegre,BR,-29.977868,-51.240265,3.7,630
B00221,Hotel Europa II,Avenue Augusta 8896,Madrid,ES,40.41627,-3.612204,5.0,324
B00222,Suites Gaudí II,"St Central, 686",Curitiba,BR,-25.390631,-49.208695,3.9,355
B00223,Inn Cathedral Saint,"Street das Flores, 1975",Barcelona,ES,41.388245,2.182322,4.7,414
B00224,Hotel Europa,"Rua Paulista, 6589",Madrid,ES,40.396816,-3.729574,4.4,309
B00225,Pousada Cathedral II,"Street Europa, 8536",Porto,PT,41.045741,-8.612939,4.4,820
B00226,Inn Augusta II,"Avenue dos Andradas, 5775",Curitiba,BR,-25.454464,-49.304977,4.0,659
B00227,Suites Cathedral,"Praça Copacabana, 6745",Rio de Janeiro,BR,-22.917252,-43.216862,3.5,329
B00228,Grand Hotel Augusta II,"Praça Liberdade, 2823",Lisboa,PT,38.848039,-9.132082,4.1,452
B00229,Inn Europa Boutique & Spa,"Praça Central, 7134",Porto,PT,41.148926,-8.540186,4.1,687
B00230,Residency Europa,"Avenue Copacabana, 670",Porto,PT,41.089905,-8.62532,4.1,396
B00231,Pousada Gaudí Saint,"St Central, 5570",São Paulo,BR,-23.555213,-46.742,4.0,758
B00232,Grand Hotel Europa & Spa,"Avenida Paulista, 3832",Rio de Janeiro,BR,-22.938608,-43.193545,3.8,40
B00233,Grand Hotel Gaudí St.,"Rua da Sé, 9088",São Paulo,BR,-23.529111,-46.612057,3.8,576
B00234,Pousada Lumière,"Rua Augusta, 156",Porto,PT,41.179631,-8.633464,4.7,121
B00235,Inn Seine,"Avenue Liberdade, 5926",Lisboa,PT,38.695083,-9.069473,4.3,560
B00236,Suites Augusta,"Praça Liberdade, 9032",Curitiba,BR,-25.457363,-49.274836,4.4,518
B00237,Residency Central,"Praça Liberdade, 4089",Curitiba,BR,-25.402928,-49.223776,4.7,1104
B00238,Inn Cathedral,"Praça Augusta, 1532",Curitiba,BR,-25.412062,-49.302287,3.5,602
B00239,Suites Gaudí Boutique,"Street Central, 6817",Barcelona,ES,41.428354,2.122346,3.9,490
B00240,Inn Lumière II,"R. das Flores, 7805",Madrid,ES,40.454537,-3.735145,3.8,413
B00241,Suites Copacabana,"Avenue Augusta, 661",Belo Horizonte,BR,-19.921879,-44.016968,4.2,988
B00242,Hotel Augusta Saint Boutique,"Avenida das Flores, 9169",Porto,PT,41.123898,-8.597579,4.0,661
B00243,Residency Gaudí Saint,"Avenue Liberdade, 6749",Belo Horizonte,BR,-19.84986,-43.953593,4.8,812
B00244,Inn Augusta II,"Street Copacabana, 8771",Porto Alegre,BR,-30.038387,-51.320012,4.5,518
B00245,Grand  Paulista,"Av. das Flores, 4876",Madrid,ES,40.411957,-3.77846,3.3,68
B00246,Pousada Lumière II & Spa,"Avenue Augusta, 5411",Curitiba,BR,-25.424964,-49.343422,4.1,263
B00247,Grand Augusta II,Street Copacabana 3745,Rio de Janeiro,BR,-22.900199,-43.212443,4.8,566
B00248,Palace Seine II,"R. Central, 4659",Barcelona,ES,41.373928,2.154638,4.7,748
B00249,Palace Central Saint,"Avenida Paulista, 6032",São Paulo,BR,-23.534577,-46.535587,3.5,450
B00250,Residency Seine,"R. Central, 9429",Rio de Janeiro,BR,-22.865734,-43.104228,4.5,771
B00251,Grand Hotel Augusta Saint,"R. da Sé, 3501",Curitiba,BR,-25.416208,-49.216069,3.9,179
B00252,Pousada Gaudí Saint,"Praça Europa, 2071",Belo Horizonte,BR,-19.935154,-43.945191,4.5,20
B00253,Grand Hotel Lumière,Street da Sé 7,Porto,PT,41.133869,-8.571967,5.0,948
B00254,Suites Europa II,"Avenue Europa, 4010",Curitiba,BR,-25.396327,-49.283797,4.9,636
B00255,Hotel Augusta,"Street da Sé, 3808",Porto,PT,41.160054,-8.669947,5.0,610
B00256,Pousada Cathedral,"Rua das Flores, 9715",Belo Horizonte,BR,-19.94676,-43.912154,4.3,856
B00257,Suites Liberdade Saint,"Praça da Sé, 6208",São Paulo,BR,-23.633857,-46.570573,3.8,434
B00258,Suites Cathedral,"Rua das Flores, 7685",Porto,PT,41.181147,-8.628736,4.1,441
B00259,Inn Augusta,"Avenida Augusta, 7167",Porto Alegre,BR,-30.075772,-51.260685,3.8,930
B00260,Pousada Gaudí Saint & Spa,"Rua Liberdade, 3826",Madrid,ES,40.41423,-3.65291,5.0,60
B00261,Pousada Liberdade II,"R. das Flores, 2842",Madrid,ES,40.454366,-3.675699,3.6,647
B00262,Palace Gaudí Saint,"Street Liberdade, 8449",Belo Horizonte,BR,-19.957192,-43.928346,3.2,451
B00263,Inn Central Saint,"Praça Copacabana, 3427",Curitiba,BR,-25.410337,-49.231243,4.1,1
B00264,Grand Hotel Copacabana II & Spa,Avenida da República 2556,Porto Alegre,BR,-30.108464,-51.269481,3.7,296
B00265,Suites Cathedral Boutique & Spa,"Rua Central, 2369",Curitiba,BR,-25.451584,-49.340041,3.8,634
B00266,Residency Cathedral,"Avenida Europa, 5566",São Paulo,BR,-23.537714,-46.564762,4.5,1209
B00267,Grand Hotel Augusta,"Street da República, 6847",Paris,FR,48.82376,2.426936,4.1,844
B00268,Grand Hotel Lumière,"Avenue Central, 2438",São Paulo,BR,-23.557297,-46.621956,4.9,537
B00269,Inn Augusta II Boutique,"Avenue Liberdade, 9011",Lisboa,PT,38.707299,-9.101546,4.1,1049
B00270,Hotel Gaudí,Avenida da República 7095,São Paulo,BR,-23.523067,-46.646892,3.8,270
B00271,Pousada Paulista,"R. da Sé, 4889",São Paulo,BR,-23.436375,-46.650816,2.7,488
B00272,Hotel Liberdade Saint,"Avenida Liberdade, 1520",Paris,FR,48.833985,2.343341,3.7,944
B00273,Palace Augusta Saint,"Praça dos Andradas, 4425",Madrid,ES,40.40543,-3.68036,5.0,986
B00274,Palace Liberdade,"Rua dos Andradas, 7481",Barcelona,ES,41.40306,2.244176,4.1,322
B00275,Palace Europa II,Avenida dos Andradas 1816,Belo Horizonte,BR,-19.911419,-43.934091,4.4,430
B00276,Inn Lumière,"Avenida Europa, 8932",São Paulo,BR,-23.609789,-46.575428,4.7,649
B00277,Inn Seine,"Avenue Europa, 3867",Barcelona,ES,41.422103,2.199333,4.0,331
B00278,Residency Liberdade,"Praça das Flores, 2208",Belo Horizonte,BR,-19.889256,-43.907328,2.6,121
B00279,Inn Lumière Saint,"Avenue Copacabana, 8681",Rio de Janeiro,BR,-22.940686,-43.051651,4.5,426
B00280,Inn Seine,"Avenue das Flores, 8585",Paris,FR,48.862141,2.363541,3.2,370
B00281,Inn Paulista,"St Central, 6708",Curitiba,BR,-25.413714,-49.239656,3.4,405
B00282,Grand Seine II,Praça dos Andradas 1933,Rio de Janeiro,BR,-22.980932,-43.182779,3.8,694
B00283,Suites Gaudí,"Praça Europa, 9468",Paris,FR,48.783959,2.357106,4.5,490
B00284,Residency Cathedral II Boutique,"Avenida Europa, 9078",Curitiba,BR,-25.472756,-49.205264,3.7,1035
B00285,Grand  Copacabana Saint,"Avenue Europa, 8712",Paris,FR,48.949653,2.339613,4.4,1
B00286,Inn Seine Saint,"Av. das Flores, 8149",São Paulo,BR,-23.526797,-46.59537,3.9,186
B00287,Hotel Liberdade & Spa,"Avenue Europa, 1677",Paris,FR,49.03447,2.275927,5.0,425
B00288,Grand Hotel Lumière,"Street da República, 4558",Barcelona,ES,41.37372,1.996702,4.7,123
B00289,Hotel Liberdade,"Street Central, 615",Lisboa,PT,38.651358,-9.185849,3.9,772
B00290,Residency Lumière Saint,"Avenida Augusta, 3608",Porto Alegre,BR,-30.117717,-51.214075,3.8,500
B00291,Residency Central,"Avenue dos Andradas, 5142",Porto Alegre,BR,-29.941954,-51.179663,4.3,187
B00292,Grand Hotel Copacabana Saint,Rua Europa 8713,Porto,PT,41.037519,-8.625728,4.2,577
B00293,Grand Cathedral,"R. Paulista, 1662",Porto Alegre,BR,-30.049203,-51.254434,3.7,706
B00294,Hotel Paulista,"Avenue da República, 1904",Madrid,ES,40.326399,-3.67632,4.8,6
B00295,Inn Copacabana,"Praça Augusta, 4947",Lisboa,PT,38.733904,-9.158889,4.7,612
B00296,Residency Augusta,Praça dos Andradas 2973,Rio de Janeiro,BR,-22.885515,-43.165047,4.2,359
B00297,Suites Liberdade Boutique,"Praça Copacabana, 4069",Madrid,ES,40.42362,-3.731826,3.6,176
B00298,Hotel Europa II & Spa,"Rua da República, 3803",Rio de Janeiro,BR,-22.950737,-43.205152,3.0,518
B00299,Inn Liberdade Saint,"Praça dos Andradas, 2850",Curitiba,BR,-25.389738,-49.327,4.2,954
B00300,Hotel Augusta Saint,Avenida Augusta 2556,Barcelona,ES,41.418695,2.187372,4.3,13
B00301,Palace Lumière Saint,"Avenue da República, 8561",Rio de Janeiro,BR,-22.911369,-43.180618,3.8,656
B00302,Grand Hotel Liberdade II,"Rua Copacabana, 1338",Curitiba,BR,-25.503225,-49.32667,3.9,714
B00303,Hotel Central Saint,"Rua Paulista, 8025",Porto Alegre,BR,-30.013988,-51.195324,4.0,994
B00304,Palace Seine Saint,"Avenida das Flores, 5308",Belo Horizonte,BR,-19.820084,-43.97917,3.8,767
B00305,Pousada Seine,"Avenue dos Andradas, 6916",Madrid,ES,40.471194,-3.750506,3.9,432
B00306,Suites Central,"Avenue da Sé, 5104",Barcelona,ES,41.435014,2.217226,4.0,909
B00307,Hotel Europa,"Praça Liberdade, 137",Barcelona,ES,41.40603,2.063332,4.2,576
B00308,Palace Paulista Saint,"Avenue Copacabana, 3688",Barcelona,ES,41.463628,2.179181,4.4,7
B00309,Suites Paulista II,Praça Europa 7082,Porto Alegre,BR,-30.066019,-51.24095,4.0,90
B00310,Pousada Liberdade II,"Avenida Paulista, 6319",Belo Horizonte,BR,-19.953374,-43.992385,4.8,834
B00311,Liberdade Saint,"Ave Paulista, 817",Rio de Janeiro,BR,-22.912003,-43.207507,5.0,707
B00312,Grand Hotel Gaudí II,"Rua das Flores, 6812",Rio de Janeiro,BR,-22.922876,-43.08793,3.9,567
B00313,Suites Gaudí,"Praça Copacabana, 6802",Belo Horizonte,BR,-19.879192,-44.053692,3.7,509
B00314,Grand Hotel Central Saint,"Avenue Europa, 532",Porto Alegre,BR,-30.084035,-51.265238,3.5,49
B00315,Pousada Cathedral II & Spa & Spa,"Street Augusta, 5627",Porto Alegre,BR,-30.035683,-51.248025,3.9,766
B00316,Grand Hotel Paulista & Spa,"Street Copacabana, 671",Paris,FR,48.871929,2.423816,4.7,690
B00317,Residency Central,"Praça da Sé, 991",Lisboa,PT,38.757964,-9.123442,4.9,825
B00318,Grand Hotel Seine,"Praça dos Andradas, 3341",Curitiba,BR,-25.362456,-49.359681,4.5,143
B00319,Grand Hotel Seine,"Rua Europa, 3279",Porto Alegre,BR,-30.075215,-51.154081,4.4,814
B00320,Hotel Central,"Praça dos Andradas, 4335",Barcelona,ES,41.349437,2.204857,4.9,603
B00321,Palace Seine II,"Street da República, 923",Madrid,ES,40.460745,-3.759057,4.4,675
B00322,Suites Central,"Praça da Sé, 4501",São Paulo,BR,-23.499889,-46.615036,3.7,850
B00323,Suites Lumière & Spa,"Avenue dos Andradas, 8093",Rio de Janeiro,BR,-22.898968,-43.189539,4.7,815
B00324,Suites Augusta,Avenue Europa 8491,Porto,PT,41.150991,-8.617156,3.3,707
B00325,Suites Lumière II,"Street da República, 3505",São Paulo,BR,-23.529452,-46.577154,5.0,847
B00326,Palace Seine Saint,"Avenue Liberdade, 68",São Paulo,BR,-23.462075,-46.650042,3.3,236
B00327,Pousada Cathedral,"Avenida da República, 651",Lisboa,PT,38.797458,-9.073002,2.8,144
B00328,Grand Hotel Augusta II,"Avenida Augusta, 5233",Belo Horizonte,BR,-19.919331,-43.905354,4.4,392
B00329,Inn Paulista Saint,"Street dos Andradas, 616",Belo Horizonte,BR,-19.821335,-43.963357,3.6,664
B00330,Palace Paulista II,"Avenida das Flores, 3876",Barcelona,ES,41.398909,2.128829,4.0,604
B00331,Residency Lumière,"Rua Liberdade, 7383",Barcelona,ES,41.361366,2.138486,4.7,1049
B00332,Hotel Lumière Saint,"Street da República, 9077",São Paulo,BR,-23.647053,-46.693354,4.5,573
B00333,Palace Liberdade II & Spa Boutique,"Avenida Copacabana, 1547",Rio de Janeiro,BR,-22.970227,-43.183159,3.6,562
B00334,Grand Hotel Augusta Saint,"Street Liberdade, 6629",Rio de Janeiro,BR,-22.932088,-43.196842,3.2,650
B00335,Residency Lumière Saint,"Praça da Sé, 7543",Barcelona,ES,41.463123,2.164257,3.7,127
B00336,Inn Cathedral,"Avenida Central, 3137",São Paulo,BR,-23.599073,-46.579877,3.3,333
B00337,Hotel Copacabana Saint Boutique,"Rua Europa, 5068",Lisboa,PT,38.741582,-9.235017,3.8,724
B00338,Pousada Europa II,"Rua dos Andradas, 845",Paris,FR,48.837167,2.402478,3.8,905
B00339,Residency Cathedral,"Rua das Flores, 187",Barcelona,ES,41.404246,2.109462,3.9,1293
B00340,Suites Central,"Rua dos Andradas, 2295",Porto,PT,41.212133,-8.634242,3.8,403
B00341,Hotel Europa II,"R. Central, 308",Belo Horizonte,BR,-19.913045,-44.023747,5.0,693
B00342,Inn Seine 2,"Street Augusta, 8113",São Paulo,BR,-23.582303,-46.607676,2.6,291
B00343,Residency Europa,"Rua da República, 8348",Lisboa,PT,38.582803,-9.163896,3.8,894
B00344,Palace Cathedral,R. Central 7070,Lisboa,PT,38.781464,-9.150244,3.3,394
B00345,Residency Paulista & Spa,"Rua Central, 7118",Curitiba,BR,-25.387243,-49.193841,5.0,741
B00346,Hotel Seine,"Avenue das Flores, 9941",Curitiba,BR,-25.440409,-49.237403,4.3,847
B00347,Hotel Paulista Saint,"Rua da Sé, 7000",Rio de Janeiro,BR,-22.906012,-43.158263,4.2,574
B00348,Hotel Central Saint,"Avenida dos Andradas, 1052",Lisboa,PT,38.676045,-9.093937,4.4,939
B00349,Suites Gaudí St.,"Street das Flores, 184",Porto,PT,41.117359,-8.709562,4.4,738
B00350,Inn Cathedral Boutique,"Rua dos Andradas, 4183",Belo Horizonte,BR,-19.944927,-43.964893,3.6,30
B00351,Seine,"Praça da República, 2673",Belo Horizonte,BR,-19.892253,-43.930696,4.2,891
B00352,Palace Central,"Rua da República, 3962",São Paulo,BR,-23.550989,-46.61057,3.9,405
B00353,Hotel Central II,Rua Paulista 2029,Lisboa,PT,38.661113,-9.12794,4.2,735
B00354,Palace Central Saint,Avenue dos Andradas 6510,Porto,PT,41.188692,-8.577945,3.5,285
B00355,Grand Hotel Copacabana,"Rua da República, 6929",Porto Alegre,BR,-30.075852,-51.241325,4.7,553
B00356,Inn Liberdade,"Praça Augusta, 2467",Belo Horizonte,BR,-20.025363,-43.880843,4.3,666
B00357,Palace Paulista Saint,"Rua Liberdade, 1074",Rio de Janeiro,BR,-22.963698,-43.259779,4.8,873
B00358,Residency Augusta,"Street Augusta, 8379",Porto,PT,41.085947,-8.625319,4.4,795
B00359,Suites Lumière Boutique,"Praça Central, 3855",São Paulo,BR,-23.504482,-46.655278,4.2,376
B00360,Residency Seine,"Praça Europa, 7120",Madrid,ES,40.409996,-3.705177,3.9,792
B00361,Grand Hotel Gaudí,"Street dos Andradas, 9418",Curitiba,BR,-25.440601,-49.273935,5.0,222
B00362,Palace Central & Spa,"Rua Augusta, 7702",Madrid,ES,40.496386,-3.773715,4.7,448
B00363,Residency Gaudí,"Ave das Flores, 2018",Porto Alegre,BR,-29.953762,-51.255595,3.5,377
B00364,Hotel Gaudí II,"Avenida Europa, 8308",Curitiba,BR,-25.449646,-49.297888,3.7,505
B00365,Pousada Paulista Saint,"Praça da Sé, 1554",Curitiba,BR,-25.465937,-49.217188,4.8,282
B00366,Inn Augusta Saint,"Avenida Europa, 5878",São Paulo,BR,-23.500329,-46.679793,4.5,367
B00367,Residency Cathedral II,"Street Paulista, 4671",Curitiba,BR,-25.463971,-49.323765,3.8,434
B00368,Grand Hotel Augusta,"Avenida da República, 9118",Porto,PT,41.15034,-8.643109,3.0,317
B00369,Inn Augusta Saint,"Avenue da Sé, 4714",Lisboa,PT,38.68877,-9.118256,3.8,299
B00370,Inn Copacabana II,"Avenida da Sé, 4320",Porto Alegre,BR,-30.015025,-51.169596,4.9,289
B00371,Pousada Central,"Street Augusta, 2582",Rio de Janeiro,BR,-22.945948,-43.187209,4.6,305
B00372,Inn Gaudí,"Street Copacabana, 1033",Porto Alegre,BR,-30.085443,-51.249089,3.4,840
B00373,Pousada Gaudí,"Praça da Sé, 5309",Barcelona,ES,41.374803,2.241966,5.0,214
B00374,Cathedral,"Praça das Flores, 927",Porto,PT,41.162296,-8.546006,3.4,300
B00375,Grand Hotel Cathedral II & Spa,Praça Europa 9324,Barcelona,ES,41.365815,2.153924,3.7,499
B00376,Pousada Gaudí,"R. Copacabana, 5594",São Paulo,BR,-23.599722,-46.64383,4.1,432
B00377,Hotel Copacabana,"Street Copacabana, 4884",Rio de Janeiro,BR,-22.837893,-43.28021,3.8,174
B00378,Residency Gaudí II,"Street da Sé, 7453",Porto Alegre,BR,-29.951217,-51.131448,3.6,516
B00379,Suites Europa II,"Avenida Europa, 9944",Belo Horizonte,BR,-19.973609,-43.954666,3.7,797
B00380,Suites Augusta,"Rua Augusta, 2777",Paris,FR,48.925009,2.441369,4.6,214
B00381,Pousada Europa & Spa,"Street Paulista, 5875",Porto Alegre,BR,-29.995835,-51.134636,3.5,392
B00382,Residency Cathedral St.,"Praça dos Andradas, 1368",Porto,PT,41.213295,-8.591541,3.3,180
B00383,Hotel Copacabana,"Avenue Liberdade, 9044",Lisboa,PT,38.786212,-9.180457,3.6,605
B00384,Inn Augusta,"Praça dos Andradas, 243",Lisboa,PT,38.724676,-9.148761,4.8,672
B00385,Inn Augusta Saint & Spa,Pça. das Flores 5163,Porto,PT,41.146863,-8.660093,4.8,1169
B00386,Inn Lumière Saint,"Praça da República, 2800",Paris,FR,48.8922,2.287293,5.0,534
B00387,Pousada Europa,"Rua Central, 3893",Rio de Janeiro,BR,-22.936059,-43.125632,4.2,569
B00388,Hotel Cathedral II,Avenue da República 7383,Porto,PT,41.189244,-8.698991,4.9,252
B00389,Palace Liberdade,"Pça. Paulista, 2382",Paris,FR,48.875424,2.348461,3.5,1190
B00390,Grand Hotel Central,"Avenida da República, 6361",Curitiba,BR,-25.411541,-49.262271,4.2,58
B00391,Pousada Central II Boutique,"Rua da República, 1284",São Paulo,BR,-23.498624,-46.615834,2.8,837
B00392,Pousada Augusta II,Pça. Central 8948,Porto,PT,41.071023,-8.650831,4.0,452
B00393,Pousada Augusta,"Avenida da República, 3623",São Paulo,BR,-23.622393,-46.630834,4.8,246
B00394,Inn Augusta II & Spa,"Avenue Paulista, 693",Barcelona,ES,41.340128,2.087475,4.8,525
B00395,Pousada Europa II,"Avenue Central, 7934",Barcelona,ES,41.415886,2.236482,4.5,401
B00396,Inn Cathedral,"Praça da Sé, 1185",Curitiba,BR,-25.329412,-49.314295,4.0,511
B00397,Pousada Cathedral Saint,"Avenue Europa, 9964",Lisboa,PT,38.686724,-9.143671,4.2,617
B00398,Grand  Augusta,"Av. dos Andradas, 6749",Porto,PT,41.029534,-8.688313,4.3,504
B00399,Grand Hotel Cathedral II,"Avenue Liberdade, 3855",Lisboa,PT,38.693296,-9.168828,4.0,460
B00400,Residency Central,"Avenida Augusta, 3139",Paris,FR,48.847083,2.34702,4.3,349
B00401,Palace Liberdade,"Avenue da Sé, 3900",Lisboa,PT,38.826592,-9.110174,3.9,727
B00402,Pousada Gaudí & Spa,"Praça Central, 2227",Porto Alegre,BR,-30.050195,-51.232489,3.1,317
B00403,Residency Copacabana Saint,"Praça Liberdade, 1785",Porto Alegre,BR,-30.025827,-51.226216,3.9,206
B00404,Pousada Cathedral II,"Praça Copacabana, 7608",Porto,PT,41.12046,-8.569424,3.6,942
B00405,Inn Augusta,"Rua da Sé, 3198",Lisboa,PT,38.681735,-9.11683,4.8,73
B00406,Palace Cathedral,"Street Liberdade, 6454",Porto,PT,41.098132,-8.622042,4.6,139
B00407,Pousada Cathedral,"Avenue Copacabana, 1182",Porto Alegre,BR,-30.088416,-51.217378,5.0,74
B00408,Palace Copacabana Boutique,"Av. da República, 4531",Barcelona,ES,41.403608,2.242188,4.7,130
B00409,Palace Gaudí Saint,"Avenida das Flores, 2581",Belo Horizonte,BR,-19.933635,-43.818564,4.0,408
B00410,Palace Paulista,"Avenida Central, 7081",Curitiba,BR,-25.468826,-49.357813,4.0,651
B00411,Suites Copacabana,"Avenue Liberdade, 5623",Porto,PT,41.104348,-8.53998,3.9,378
B00412,Hotel Central,"Rua da República, 5754",Paris,FR,48.907137,2.387795,4.5,937
B00413,Inn Gaudí Saint & Spa,"Rua Central, 516",Paris,FR,48.808671,2.304288,4.3,1
B00414,Residency Gaudí 2,Praça Liberdade 1141,Porto,PT,41.12917,-8.679932,4.4,425
B00415,Grand Hotel Liberdade,"Rua Copacabana, 4087",São Paulo,BR,-23.571262,-46.637388,5.0,201
B00416,Residency Central Saint Boutique,"Street da Sé, 2934",Porto Alegre,BR,-30.053038,-51.301585,3.4,348
B00417, Augusta Saint,"Street da República, 4313",Porto Alegre,BR,-30.056083,-51.212131,4.9,913
B00418,Suites Liberdade,"Pça. das Flores, 1168",Curitiba,BR,-25.422225,-49.309325,4.8,201
B00419,Palace Cathedral Saint,"Rua dos Andradas, 6692",Porto,PT,41.165779,-8.601705,3.3,872
B00420,Inn Liberdade Saint,Ave das Flores 3830,Lisboa,PT,38.717374,-9.142497,4.2,283
B00421,Grand  Europa,"Street da Sé, 8882",Madrid,ES,40.545422,-3.686275,4.8,474
B00422,Pousada Augusta Saint,"Praça Augusta, 5566",Madrid,ES,40.511405,-3.714518,3.8,418
B00423,Grand Hotel Copacabana II,"Avenida dos Andradas, 4814",Madrid,ES,40.465529,-3.720187,4.6,161
B00424,Suites Gaudí,"Avenue da Sé, 4436",Madrid,ES,40.441463,-3.655981,4.2,384
